[
  { "id": "d-1", "name": "Sultanpur", "state": "Uttar Pradesh", "centroid": { "lat": 26.2616, "lng": 82.0696 } },
  { "id": "d-2", "name": "Lucknow", "state": "Uttar Pradesh", "centroid": { "lat": 26.8467, "lng": 80.9462 } },
  { "id": "d-3", "name": "Varanasi", "state": "Uttar Pradesh", "centroid": { "lat": 25.3176, "lng": 82.9739 } },
  { "id": "d-4", "name": "Kanpur Nagar", "state": "Uttar Pradesh", "centroid": { "lat": 26.4499, "lng": 80.3319 } },
  { "id": "d-5", "name": "Prayagraj", "state": "Uttar Pradesh", "centroid": { "lat": 25.4358, "lng": 81.8463 } },
  { "id": "d-6", "name": "Agra", "state": "Uttar Pradesh", "centroid": { "lat": 27.1767, "lng": 78.0081 } },
  { "id": "d-7", "name": "Ghaziabad", "state": "Uttar Pradesh", "centroid": { "lat": 28.6692, "lng": 77.4538 } },
  { "id": "d-8", "name": "Gorakhpur", "state": "Uttar Pradesh", "centroid": { "lat": 26.7606, "lng": 83.3732 } },
  { "id": "d-9", "name": "Meerut", "state": "Uttar Pradesh", "centroid": { "lat": 28.9845, "lng": 77.7064 } },
  { "id": "d-10", "name": "Noida", "state": "Uttar Pradesh", "centroid": { "lat": 28.5355, "lng": 77.3910 } },
  { "id": "d-11", "name": "Delhi", "state": "Delhi", "centroid": { "lat": 28.6139, "lng": 77.2090 } },
  { "id": "d-12", "name": "Gurugram", "state": "Haryana", "centroid": { "lat": 28.4595, "lng": 77.0266 } },
  { "id": "d-13", "name": "Faridabad", "state": "Haryana", "centroid": { "lat": 28.4089, "lng": 77.3178 } },
  { "id": "d-14", "name": "Ambala", "state": "Haryana", "centroid": { "lat": 30.3782, "lng": 76.7767 } },
  { "id": "d-15", "name": "Panchkula", "state": "Haryana", "centroid": { "lat": 30.6942, "lng": 76.8606 } },
  { "id": "d-16", "name": "Chandigarh", "state": "Chandigarh", "centroid": { "lat": 30.7333, "lng": 76.7794 } },
  { "id": "d-17", "name": "Ludhiana", "state": "Punjab", "centroid": { "lat": 30.9010, "lng": 75.8573 } },
  { "id": "d-18", "name": "Amritsar", "state": "Punjab", "centroid": { "lat": 31.6340, "lng": 74.8723 } },
  { "id": "d-19", "name": "Jalandhar", "state": "Punjab", "centroid": { "lat": 31.3260, "lng": 75.5762 } },
  { "id": "d-20", "name": "Patiala", "state": "Punjab", "centroid": { "lat": 30.3398, "lng": 76.3869 } },
  { "id": "d-21", "name": "Shimla", "state": "Himachal Pradesh", "centroid": { "lat": 31.1048, "lng": 77.1734 } },
  { "id": "d-22", "name": "Kangra", "state": "Himachal Pradesh", "centroid": { "lat": 32.1020, "lng": 76.2691 } },
  { "id": "d-23", "name": "Mandi", "state": "Himachal Pradesh", "centroid": { "lat": 31.7075, "lng": 76.9320 } },
  { "id": "d-24", "name": "Dehradun", "state": "Uttarakhand", "centroid": { "lat": 30.3165, "lng": 78.0322 } },
  { "id": "d-25", "name": "Haridwar", "state": "Uttarakhand", "centroid": { "lat": 29.9457, "lng": 78.1642 } },
  { "id": "d-26", "name": "Nainital", "state": "Uttarakhand", "centroid": { "lat": 29.3919, "lng": 79.4542 } },
  { "id": "d-27", "name": "Jaipur", "state": "Rajasthan", "centroid": { "lat": 26.9124, "lng": 75.7873 } },
  { "id": "d-28", "name": "Udaipur", "state": "Rajasthan", "centroid": { "lat": 24.5854, "lng": 73.7125 } },
  { "id": "d-29", "name": "Jodhpur", "state": "Rajasthan", "centroid": { "lat": 26.2389, "lng": 73.0243 } },
  { "id": "d-30", "name": "Kota", "state": "Rajasthan", "centroid": { "lat": 25.2138, "lng": 75.8648 } },
  { "id": "d-31", "name": "Bikaner", "state": "Rajasthan", "centroid": { "lat": 28.0229, "lng": 73.3119 } },
  { "id": "d-32", "name": "Ajmer", "state": "Rajasthan", "centroid": { "lat": 26.4499, "lng": 74.6399 } },
  { "id": "d-33", "name": "Indore", "state": "Madhya Pradesh", "centroid": { "lat": 22.7196, "lng": 75.8577 } },
  { "id": "d-34", "name": "Bhopal", "state": "Madhya Pradesh", "centroid": { "lat": 23.2599, "lng": 77.4126 } },
  { "id": "d-35", "name": "Gwalior", "state": "Madhya Pradesh", "centroid": { "lat": 26.2183, "lng": 78.1828 } },
  { "id": "d-36", "name": "Jabalpur", "state": "Madhya Pradesh", "centroid": { "lat": 23.1815, "lng": 79.9864 } },
  { "id": "d-37", "name": "Raipur", "state": "Chhattisgarh", "centroid": { "lat": 21.2514, "lng": 81.6296 } },
  { "id": "d-38", "name": "Bilaspur", "state": "Chhattisgarh", "centroid": { "lat": 22.0797, "lng": 82.1391 } },
  { "id": "d-39", "name": "Durg", "state": "Chhattisgarh", "centroid": { "lat": 21.1904, "lng": 81.2849 } },
  { "id": "d-40", "name": "Nagpur", "state": "Maharashtra", "centroid": { "lat": 21.1458, "lng": 79.0882 } },
  { "id": "d-41", "name": "Pune", "state": "Maharashtra", "centroid": { "lat": 18.5204, "lng": 73.8567 } },
  { "id": "d-42", "name": "Mumbai", "state": "Maharashtra", "centroid": { "lat": 19.0760, "lng": 72.8777 } },
  { "id": "d-43", "name": "Nashik", "state": "Maharashtra", "centroid": { "lat": 19.9975, "lng": 73.7898 } },
  { "id": "d-44", "name": "Aurangabad", "state": "Maharashtra", "centroid": { "lat": 19.8762, "lng": 75.3433 } },
  { "id": "d-45", "name": "Solapur", "state": "Maharashtra", "centroid": { "lat": 17.6599, "lng": 75.9064 } },
  { "id": "d-46", "name": "Ahmedabad", "state": "Gujarat", "centroid": { "lat": 23.0225, "lng": 72.5714 } },
  { "id": "d-47", "name": "Surat", "state": "Gujarat", "centroid": { "lat": 21.1702, "lng": 72.8311 } },
  { "id": "d-48", "name": "Vadodara", "state": "Gujarat", "centroid": { "lat": 22.3072, "lng": 73.1812 } },
  { "id": "d-49", "name": "Rajkot", "state": "Gujarat", "centroid": { "lat": 22.3039, "lng": 70.8022 } },
  { "id": "d-50", "name": "Bhavnagar", "state": "Gujarat", "centroid": { "lat": 21.7645, "lng": 72.1519 } },
  { "id": "d-51", "name": "Gandhinagar", "state": "Gujarat", "centroid": { "lat": 23.2156, "lng": 72.6369 } },
  { "id": "d-52", "name": "Jamnagar", "state": "Gujarat", "centroid": { "lat": 22.4707, "lng": 70.0577 } },
  { "id": "d-53", "name": "Porbandar", "state": "Gujarat", "centroid": { "lat": 21.6417, "lng": 69.6293 } },
  { "id": "d-54", "name": "Kutch", "state": "Gujarat", "centroid": { "lat": 23.7337, "lng": 69.8597 } },
  { "id": "d-55", "name": "Bengaluru Urban", "state": "Karnataka", "centroid": { "lat": 12.9716, "lng": 77.5946 } },
  { "id": "d-56", "name": "Mysuru", "state": "Karnataka", "centroid": { "lat": 12.2958, "lng": 76.6394 } },
  { "id": "d-57", "name": "Belagavi", "state": "Karnataka", "centroid": { "lat": 15.8497, "lng": 74.4977 } },
  { "id": "d-58", "name": "Hubballi", "state": "Karnataka", "centroid": { "lat": 15.3647, "lng": 75.1240 } },
  { "id": "d-59", "name": "Mangaluru", "state": "Karnataka", "centroid": { "lat": 12.9141, "lng": 74.8560 } },
  { "id": "d-60", "name": "Thiruvananthapuram", "state": "Kerala", "centroid": { "lat": 8.5241, "lng": 76.9366 } },
  { "id": "d-61", "name": "Kochi", "state": "Kerala", "centroid": { "lat": 9.9312, "lng": 76.2673 } },
  { "id": "d-62", "name": "Kozhikode", "state": "Kerala", "centroid": { "lat": 11.2588, "lng": 75.7804 } },
  { "id": "d-63", "name": "Palakkad", "state": "Kerala", "centroid": { "lat": 10.7867, "lng": 76.6548 } },
  { "id": "d-64", "name": "Chennai", "state": "Tamil Nadu", "centroid": { "lat": 13.0827, "lng": 80.2707 } },
  { "id": "d-65", "name": "Coimbatore", "state": "Tamil Nadu", "centroid": { "lat": 11.0168, "lng": 76.9558 } },
  { "id": "d-66", "name": "Madurai", "state": "Tamil Nadu", "centroid": { "lat": 9.9252, "lng": 78.1198 } },
  { "id": "d-67", "name": "Tiruchirappalli", "state": "Tamil Nadu", "centroid": { "lat": 10.7905, "lng": 78.7047 } },
  { "id": "d-68", "name": "Salem", "state": "Tamil Nadu", "centroid": { "lat": 11.6643, "lng": 78.1460 } },
  { "id": "d-69", "name": "Hyderabad", "state": "Telangana", "centroid": { "lat": 17.3850, "lng": 78.4867 } },
  { "id": "d-70", "name": "Warangal", "state": "Telangana", "centroid": { "lat": 17.9784, "lng": 79.5941 } },
  { "id": "d-71", "name": "Nizamabad", "state": "Telangana", "centroid": { "lat": 18.6725, "lng": 78.0941 } },
  { "id": "d-72", "name": "Karimnagar", "state": "Telangana", "centroid": { "lat": 18.4386, "lng": 79.1288 } },
  { "id": "d-73", "name": "Visakhapatnam", "state": "Andhra Pradesh", "centroid": { "lat": 17.6868, "lng": 83.2185 } },
  { "id": "d-74", "name": "Vijayawada", "state": "Andhra Pradesh", "centroid": { "lat": 16.5062, "lng": 80.6480 } },
  { "id": "d-75", "name": "Guntur", "state": "Andhra Pradesh", "centroid": { "lat": 16.3067, "lng": 80.4365 } },
  { "id": "d-76", "name": "Nellore", "state": "Andhra Pradesh", "centroid": { "lat": 14.4426, "lng": 79.9865 } },
  { "id": "d-77", "name": "Tirupati", "state": "Andhra Pradesh", "centroid": { "lat": 13.6288, "lng": 79.4192 } },
  { "id": "d-78", "name": "Patna", "state": "Bihar", "centroid": { "lat": 25.5941, "lng": 85.1376 } },
  { "id": "d-79", "name": "Gaya", "state": "Bihar", "centroid": { "lat": 24.7955, "lng": 85.0077 } },
  { "id": "d-80", "name": "Muzaffarpur", "state": "Bihar", "centroid": { "lat": 26.1226, "lng": 85.3906 } },
  { "id": "d-81", "name": "Darbhanga", "state": "Bihar", "centroid": { "lat": 26.1542, "lng": 85.8918 } },
  { "id": "d-82", "name": "Bhagalpur", "state": "Bihar", "centroid": { "lat": 25.2417, "lng": 86.9844 } },
  { "id": "d-83", "name": "Kolkata", "state": "West Bengal", "centroid": { "lat": 22.5726, "lng": 88.3639 } },
  { "id": "d-84", "name": "Howrah", "state": "West Bengal", "centroid": { "lat": 22.5958, "lng": 88.2636 } },
  { "id": "d-85", "name": "Durgapur", "state": "West Bengal", "centroid": { "lat": 23.5204, "lng": 87.3119 } },
  { "id": "d-86", "name": "Siliguri", "state": "West Bengal", "centroid": { "lat": 26.7271, "lng": 88.3953 } },
  { "id": "d-87", "name": "Asansol", "state": "West Bengal", "centroid": { "lat": 23.6739, "lng": 86.9524 } },
  { "id": "d-88", "name": "Ranchi", "state": "Jharkhand", "centroid": { "lat": 23.3441, "lng": 85.3096 } },
  { "id": "d-89", "name": "Dhanbad", "state": "Jharkhand", "centroid": { "lat": 23.7957, "lng": 86.4304 } },
  { "id": "d-90", "name": "Jamshedpur", "state": "Jharkhand", "centroid": { "lat": 22.8046, "lng": 86.2029 } },
  { "id": "d-91", "name": "Bokaro", "state": "Jharkhand", "centroid": { "lat": 23.6693, "lng": 86.1511 } },
  { "id": "d-92", "name": "Hazaribagh", "state": "Jharkhand", "centroid": { "lat": 23.9966, "lng": 85.3695 } },
  { "id": "d-93", "name": "Guwahati", "state": "Assam", "centroid": { "lat": 26.1445, "lng": 91.7362 } },
  { "id": "d-94", "name": "Dibrugarh", "state": "Assam", "centroid": { "lat": 27.4728, "lng": 94.9120 } },
  { "id": "d-95", "name": "Silchar", "state": "Assam", "centroid": { "lat": 24.8333, "lng": 92.7789 } },
  { "id": "d-96", "name": "Agartala", "state": "Tripura", "centroid": { "lat": 23.8315, "lng": 91.2868 } },
  { "id": "d-97", "name": "Shillong", "state": "Meghalaya", "centroid": { "lat": 25.5788, "lng": 91.8933 } },
  { "id": "d-98", "name": "Aizawl", "state": "Mizoram", "centroid": { "lat": 23.7271, "lng": 92.7176 } },
  { "id": "d-99", "name": "Imphal", "state": "Manipur", "centroid": { "lat": 24.8170, "lng": 93.9368 } },
  { "id": "d-100", "name": "Kohima", "state": "Nagaland", "centroid": { "lat": 25.6747, "lng": 94.1100 } }
]
